{
   "html_attributions" : [],
   "next_page_token" : "CrQCIwEAALjkdbIn4cjZi0CbWXB5dDNTcKvX04jtFMtrtnvRnT14C6dXIsXdH-97D96rZPr9UbeBclby946Q9xUurqqQk1zJAG24JZuVXK98wstsqUBNxEgLX0Pnx30tK9ag9ruahF1QaIY8gbst6KSqcR-Odyad4TruzEwQiHYTHDrXMjSEig1gOZI4NjZDBlBVDmrDiFkKYRwHuFuCPfkw_CUmJiI91QjtVEkQciS6B6-FiOaW5wLDdkUf07WLWil7YfRb1em9O9jqcGrITx8fqksvC-upDYJJj06UiMjKA-vicWdS8Xtu5V0Oe8icPvI8hCbrrFji2p3o51nEzKsKpkUKs1a9Wmro-UnnYbjQPeOZzVKJimE-1iKUodCSNPcnkWoTbUZEjhBITuGUskwrf5BSWHkSENdLrSEitvwAN0VmIbrYyeYaFEdzkEaQMgz13XPmu2q0og6sLK-j",
   "results" : [
      {
         "business_status" : "OPERATIONAL",
         "geometry" : {
            "location" : {
               "lat" : 51.203236,
               "lng" : 6.839380599999999
            },
            "viewport" : {
               "northeast" : {
                  "lat" : 51.20456542989272,
                  "lng" : 6.840665629892722
               },
               "southwest" : {
                  "lat" : 51.20186577010728,
                  "lng" : 6.837965970107278
               }
            }
         },
         "icon" : "https://maps.gstatic.com/mapfiles/place_api/icons/generic_business-71.png",
         "id" : "f1ea99b22bde5ed5c887b2416fc0471cde9c8f0b",
         "name" : "FILMFLUSS | Medien- und Filmproduktion",
         "opening_hours" : {
            "open_now" : false
         },
         "photos" : [
            {
               "height" : 1814,
               "html_attributions" : [
                  "\u003ca href=\"https://maps.google.com/maps/contrib/118403852198401782032\"\u003eA Google User\u003c/a\u003e"
               ],
               "photo_reference" : "CmRaAAAAHcv4L36586FBhY_DOcMeJ2zMnriHexPajU2BIkTAwYoQzYJ2lHPRt7CK5n1LfZzEZKZ1qdOmWMqVb23ET9RQCtz6E8xzwInLIxwG_w_uEfJ8XCF0eQhZKaB9XxndiE7gEhAIdfyIGWZo3Mv6g_Zq2zoVGhRosSowjCbilIgBEO8T8m0ATLX7kA",
               "width" : 3982
            }
         ],
         "place_id" : "ChIJjZimRo7LuEcRC42ygZB2WhA",
         "plus_code" : {
            "compound_code" : "6R3Q+7Q Düsseldorf",
            "global_code" : "9F386R3Q+7Q"
         },
         "rating" : 5,
         "reference" : "ChIJjZimRo7LuEcRC42ygZB2WhA",
         "scope" : "GOOGLE",
         "types" : [ "point_of_interest", "establishment" ],
         "user_ratings_total" : 10,
         "vicinity" : "Cruthovener Str. 12, Düsseldorf"
      },
      {
         "business_status" : "OPERATIONAL",
         "geometry" : {
            "location" : {
               "lat" : 51.21201600000001,
               "lng" : 6.757861699999999
            },
            "viewport" : {
               "northeast" : {
                  "lat" : 51.21344977989272,
                  "lng" : 6.759230579892722
               },
               "southwest" : {
                  "lat" : 51.21075012010728,
                  "lng" : 6.756530920107278
               }
            }
         },
         "icon" : "https://maps.gstatic.com/mapfiles/place_api/icons/generic_business-71.png",
         "id" : "96d6e2f28df14877c61ef64dcb778498d0cf93a5",
         "name" : "Filmproduktion",
         "place_id" : "ChIJi3O8UHLKuEcRLcIAbNCI1HI",
         "plus_code" : {
            "compound_code" : "6Q65+R4 Düsseldorf",
            "global_code" : "9F386Q65+R4"
         },
         "rating" : 0,
         "reference" : "ChIJi3O8UHLKuEcRLcIAbNCI1HI",
         "scope" : "GOOGLE",
         "types" : [ "point_of_interest", "establishment" ],
         "user_ratings_total" : 0,
         "vicinity" : "Gladbacher Str. 54, Düsseldorf"
      },
      {
         "business_status" : "OPERATIONAL",
         "geometry" : {
            "location" : {
               "lat" : 51.21275,
               "lng" : 6.765813
            },
            "viewport" : {
               "northeast" : {
                  "lat" : 51.21417122989273,
                  "lng" : 6.767228929892722
               },
               "southwest" : {
                  "lat" : 51.21147157010728,
                  "lng" : 6.764529270107278
               }
            }
         },
         "icon" : "https://maps.gstatic.com/mapfiles/place_api/icons/generic_business-71.png",
         "id" : "ea5c44900cfd315d0cec04763423ee9fc73d5457",
         "name" : "salt & pictures - Filmproduktion Düsseldorf",
         "opening_hours" : {
            "open_now" : false
         },
         "photos" : [
            {
               "height" : 2440,
               "html_attributions" : [
                  "\u003ca href=\"https://maps.google.com/maps/contrib/113197258537320970894\"\u003esalt &amp; pictures\u003c/a\u003e"
               ],
               "photo_reference" : "CmRaAAAAUdxOqgXHS-y2vXJSyKnutujv29xGM3Tfg7RtgBWFjgLSQ0k79laH69oaNfe905PMVGOd9PVS5hXMjAD0BPAtHxF92gLZbyfu1m0-8TCz9-AkbI0IRwI__kYtYKEzbTETEhCZqWSnp7hEoJqoiDM0sDcxGhTtKXzMZzAoVWpnzmkrHiOLPzbXrQ",
               "width" : 3840
            }
         ],
         "place_id" : "ChIJRYsfu-nLuEcR2uA_J5xZgck",
         "plus_code" : {
            "compound_code" : "6Q78+38 Düsseldorf",
            "global_code" : "9F386Q78+38"
         },
         "rating" : 4.9,
         "reference" : "ChIJRYsfu-nLuEcR2uA_J5xZgck",
         "scope" : "GOOGLE",
         "types" : [ "point_of_interest", "establishment" ],
         "user_ratings_total" : 15,
         "vicinity" : "Bürgerstraße 20, Düsseldorf"
      },
      {
         "business_status" : "OPERATIONAL",
         "geometry" : {
            "location" : {
               "lat" : 51.255029,
               "lng" : 6.755336600000001
            },
            "viewport" : {
               "northeast" : {
                  "lat" : 51.25641012989272,
                  "lng" : 6.756818029892722
               },
               "southwest" : {
                  "lat" : 51.25371047010728,
                  "lng" : 6.754118370107278
               }
            }
         },
         "icon" : "https://maps.gstatic.com/mapfiles/place_api/icons/generic_business-71.png",
         "id" : "6a26457be78c17f472b425876a98434646d69b5d",
         "name" : "Neiser Filmproduktion Düsseldorf",
         "opening_hours" : {
            "open_now" : false
         },
         "photos" : [
            {
               "height" : 1400,
               "html_attributions" : [
                  "\u003ca href=\"https://maps.google.com/maps/contrib/106522319838586849066\"\u003eA Google User\u003c/a\u003e"
               ],
               "photo_reference" : "CmRaAAAA2oxw3w8NUZhcDYf2HNf0dGcZHUbBP418zx0nbtZgVvT-VEH415wWor1VwiQX0AGK_BlQbb79DKcdesYFqiEWVIq-UIpz14Q56xB7vjjOHdy495QhQMFWcVjBXDKtkliLEhDb_S7tIbeBDKNisrsZjnqjGhQakyuz3wyoBhnztY305E4AfInDUw",
               "width" : 2500
            }
         ],
         "place_id" : "ChIJbYZpsR-2uEcRcNaTU0zaOPI",
         "plus_code" : {
            "compound_code" : "7Q44+24 Düsseldorf",
            "global_code" : "9F387Q44+24"
         },
         "rating" : 5,
         "reference" : "ChIJbYZpsR-2uEcRcNaTU0zaOPI",
         "scope" : "GOOGLE",
         "types" : [ "point_of_interest", "establishment" ],
         "user_ratings_total" : 27,
         "vicinity" : "Klausingstraße 28, Düsseldorf"
      },
      {
         "business_status" : "OPERATIONAL",
         "geometry" : {
            "location" : {
               "lat" : 51.218516,
               "lng" : 6.7890731
            },
            "viewport" : {
               "northeast" : {
                  "lat" : 51.21981937989272,
                  "lng" : 6.790314579892721
               },
               "southwest" : {
                  "lat" : 51.21711972010728,
                  "lng" : 6.787614920107277
               }
            }
         },
         "icon" : "https://maps.gstatic.com/mapfiles/place_api/icons/generic_business-71.png",
         "id" : "bd9ab8e51b0971f4eddcf1ca84028856a6997b43",
         "name" : "mindnapped GmbH Filmproduktion",
         "opening_hours" : {
            "open_now" : false
         },
         "photos" : [
            {
               "height" : 1080,
               "html_attributions" : [
                  "\u003ca href=\"https://maps.google.com/maps/contrib/115273704336070653793\"\u003emindnapped productions\u003c/a\u003e"
               ],
               "photo_reference" : "CmRaAAAACzkHkdoSa4NKYJ8ZqcO4waiSsbl3qferrGrlnYd1hFzXHaXm-ClD6P1Fx3KwQHVuvh4aX-7b5wINUUI33gK7K9WgAMzGB4m_CXzH30feMqRBtEXZ5BDTRFZZAbu7q0d_EhD3_Q6GhgSWvXWfJYylSrMuGhTHb5XSrXB__uqFF0guqpHeIN5ONQ",
               "width" : 1920
            }
         ],
         "place_id" : "ChIJDaKQ1UfKuEcRx3MxPsoEeys",
         "plus_code" : {
            "compound_code" : "6Q9Q+CJ Düsseldorf",
            "global_code" : "9F386Q9Q+CJ"
         },
         "rating" : 4.9,
         "reference" : "ChIJDaKQ1UfKuEcRx3MxPsoEeys",
         "scope" : "GOOGLE",
         "types" : [ "point_of_interest", "establishment" ],
         "user_ratings_total" : 14,
         "vicinity" : "Mintropstraße 12, Düsseldorf"
      },
      {
         "business_status" : "OPERATIONAL",
         "geometry" : {
            "location" : {
               "lat" : 51.22711,
               "lng" : 6.80655
            },
            "viewport" : {
               "northeast" : {
                  "lat" : 51.22837332989272,
                  "lng" : 6.807904979892721
               },
               "southwest" : {
                  "lat" : 51.22567367010728,
                  "lng" : 6.805205320107278
               }
            }
         },
         "icon" : "https://maps.gstatic.com/mapfiles/place_api/icons/generic_business-71.png",
         "id" : "799b5713974111e0e72fa1e479dcb6046bf1c1bb",
         "name" : "SECRETMEDIA Filmproduktion",
         "place_id" : "ChIJjcs_cdPLuEcR4htY-fOJrb4",
         "plus_code" : {
            "compound_code" : "6RG4+RJ Düsseldorf",
            "global_code" : "9F386RG4+RJ"
         },
         "rating" : 0,
         "reference" : "ChIJjcs_cdPLuEcR4htY-fOJrb4",
         "scope" : "GOOGLE",
         "types" : [ "point_of_interest", "establishment" ],
         "user_ratings_total" : 0,
         "vicinity" : "Birkenstraße 84, Düsseldorf"
      },
      {
         "business_status" : "OPERATIONAL",
         "geometry" : {
            "location" : {
               "lat" : 51.21714979999999,
               "lng" : 6.809544
            },
            "viewport" : {
               "northeast" : {
                  "lat" : 51.21845922989272,
                  "lng" : 6.811004129892722
               },
               "southwest" : {
                  "lat" : 51.21575957010727,
                  "lng" : 6.808304470107278
               }
            }
         },
         "icon" : "https://maps.gstatic.com/mapfiles/place_api/icons/generic_business-71.png",
         "id" : "263682b485d5b80468095008b54055ba69a5eb42",
         "name" : "Mondfahrer Filmproduktion",
         "place_id" : "ChIJ365iSsnLuEcRJrEuD62-XK4",
         "plus_code" : {
            "compound_code" : "6R85+VR Düsseldorf",
            "global_code" : "9F386R85+VR"
         },
         "rating" : 0,
         "reference" : "ChIJ365iSsnLuEcRJrEuD62-XK4",
         "scope" : "GOOGLE",
         "types" : [ "point_of_interest", "establishment" ],
         "user_ratings_total" : 0,
         "vicinity" : "Pinienstraße 2, Düsseldorf"
      },
      {
         "business_status" : "OPERATIONAL",
         "geometry" : {
            "location" : {
               "lat" : 51.2148491,
               "lng" : 6.7754924
            },
            "viewport" : {
               "northeast" : {
                  "lat" : 51.21620092989272,
                  "lng" : 6.776740029892722
               },
               "southwest" : {
                  "lat" : 51.21350127010728,
                  "lng" : 6.774040370107278
               }
            }
         },
         "icon" : "https://maps.gstatic.com/mapfiles/place_api/icons/generic_business-71.png",
         "id" : "d9716900d312a87d2689a7e9287bbca857bc4994",
         "name" : "MMCD NEW MEDIA GmbH // Filmproduktion / film production in Düsseldorf",
         "opening_hours" : {
            "open_now" : false
         },
         "photos" : [
            {
               "height" : 498,
               "html_attributions" : [
                  "\u003ca href=\"https://maps.google.com/maps/contrib/100387931833937170891\"\u003eMmcd New Media GmbH\u003c/a\u003e"
               ],
               "photo_reference" : "CmRaAAAAXFsGQ6Jr0WWEH_QGiStBZ7Nm_3ry0ICcxwYQk4bES6zSt7Ru5Pl7UhmzusQ_56A-MDILt2ksbi4odFYqvbtipoQDYvwgYW2cx4RYD7dWJQuYPeRv_mV6Bgeg_uAXjnTEEhBnBCKXu8tfU1XB13-l4nTyGhSmDKkK0dcYQMfLjezUG8H3ypyadw",
               "width" : 2000
            }
         ],
         "place_id" : "ChIJXVZEZQfKuEcROW5xsKdL7OM",
         "plus_code" : {
            "compound_code" : "6Q7G+W5 Düsseldorf",
            "global_code" : "9F386Q7G+W5"
         },
         "rating" : 0,
         "reference" : "ChIJXVZEZQfKuEcROW5xsKdL7OM",
         "scope" : "GOOGLE",
         "types" : [ "point_of_interest", "establishment" ],
         "user_ratings_total" : 0,
         "vicinity" : "Elisabethstraße 42, Düsseldorf"
      },
      {
         "business_status" : "OPERATIONAL",
         "geometry" : {
            "location" : {
               "lat" : 51.21143,
               "lng" : 6.794416
            },
            "viewport" : {
               "northeast" : {
                  "lat" : 51.21272737989273,
                  "lng" : 6.795752479892722
               },
               "southwest" : {
                  "lat" : 51.21002772010728,
                  "lng" : 6.793052820107278
               }
            }
         },
         "icon" : "https://maps.gstatic.com/mapfiles/place_api/icons/generic_business-71.png",
         "id" : "b831daa18d6ac71fa62cbac9d70abccd7e604e21",
         "name" : "Filmproduktion Düsseldorf",
         "opening_hours" : {
            "open_now" : false
         },
         "photos" : [
            {
               "height" : 1066,
               "html_attributions" : [
                  "\u003ca href=\"https://maps.google.com/maps/contrib/107045150792213511056\"\u003eFilmproduktion Düsseldorf\u003c/a\u003e"
               ],
               "photo_reference" : "CmRaAAAAKvrN_uQK2t3TWgtv2_ZpjdVXvNN4-7uUGbsWf6iilnthYqWe1iw2bMOnNO8bWqQEqgqd0oYckWZKCBfvXCqdyeCdjOAQX5C-zkQzLol7WAxSlRV5TNiVekiaVZY_SbHyEhD1MtHb8g_RCSIEN9leOJNJGhRvVYDnlxbXRxcL0HC0DL412fmNNw",
               "width" : 1599
            }
         ],
         "place_id" : "ChIJO-NIPErKuEcRDpAOod8ajYA",
         "plus_code" : {
            "compound_code" : "6Q6V+HQ Düsseldorf",
            "global_code" : "9F386Q6V+HQ"
         },
         "rating" : 0,
         "reference" : "ChIJO-NIPErKuEcRDpAOod8ajYA",
         "scope" : "GOOGLE",
         "types" : [ "point_of_interest", "establishment" ],
         "user_ratings_total" : 0,
         "vicinity" : "Oberbilker Allee 90, Düsseldorf"
      },
      {
         "business_status" : "OPERATIONAL",
         "geometry" : {
            "location" : {
               "lat" : 51.23436659999999,
               "lng" : 6.7745691
            },
            "viewport" : {
               "northeast" : {
                  "lat" : 51.23568137989272,
                  "lng" : 6.775948329892722
               },
               "southwest" : {
                  "lat" : 51.23298172010728,
                  "lng" : 6.773248670107278
               }
            }
         },
         "icon" : "https://maps.gstatic.com/mapfiles/place_api/icons/generic_business-71.png",
         "id" : "5d8bfa2bbef991a77e1aa5c0ad49731b8ddc8fcf",
         "name" : "20.7 Media Filmproduktion I Imagefilme aus Düsseldorf",
         "opening_hours" : {
            "open_now" : false
         },
         "photos" : [
            {
               "height" : 1512,
               "html_attributions" : [
                  "\u003ca href=\"https://maps.google.com/maps/contrib/114606189821099293489\"\u003e20.7 Media FullService Werbeagentur\u003c/a\u003e"
               ],
               "photo_reference" : "CmRaAAAASRhrVCnamzQkl96XV9VBYFQVQw__-rqZ3PXDZGKiKAjlwVg6ea2xORySMeZRauXQEfOvLIhUucp25M6a9uZwf-MMvNshVjAQhE2Sidjeg4Z_d2AEujfG0V4WKb8FTslhEhD9NyLCNVsb0NH4_hhYp-ZhGhQ1neYO_jnLCURBwjZaiYYQ1eg6dA",
               "width" : 2016
            }
         ],
         "place_id" : "ChIJWez53xOuuEcRH2AafwBwpuw",
         "plus_code" : {
            "compound_code" : "6QMF+PR Düsseldorf",
            "global_code" : "9F386QMF+PR"
         },
         "rating" : 5,
         "reference" : "ChIJWez53xOuuEcRH2AafwBwpuw",
         "scope" : "GOOGLE",
         "types" : [ "point_of_interest", "establishment" ],
         "user_ratings_total" : 2,
         "vicinity" : "45, Scheibenstraße, Düsseldorf"
      },
      {
         "business_status" : "OPERATIONAL",
         "geometry" : {
            "location" : {
               "lat" : 51.2331787,
               "lng" : 6.793416499999999
            },
            "viewport" : {
               "northeast" : {
                  "lat" : 51.23451522989271,
                  "lng" : 6.794859629892721
               },
               "southwest" : {
                  "lat" : 51.23181557010727,
                  "lng" : 6.792159970107277
               }
            }
         },
         "icon" : "https://maps.gstatic.com/mapfiles/place_api/icons/generic_business-71.png",
         "id" : "609627bf099396dbb0540e3364b7ba8b6f75ac5a",
         "name" : "Carsten Rusch Filmproduktion",
         "opening_hours" : {
            "open_now" : false
         },
         "place_id" : "ChIJjf1N34C2uEcRVSjgzPI2VKM",
         "plus_code" : {
            "compound_code" : "6QMV+79 Düsseldorf",
            "global_code" : "9F386QMV+79"
         },
         "rating" : 5,
         "reference" : "ChIJjf1N34C2uEcRVSjgzPI2VKM",
         "scope" : "GOOGLE",
         "types" : [ "point_of_interest", "establishment" ],
         "user_ratings_total" : 2,
         "vicinity" : "Schinkelstraße 50, Düsseldorf"
      },
      {
         "business_status" : "OPERATIONAL",
         "geometry" : {
            "location" : {
               "lat" : 51.209494,
               "lng" : 6.762957999999999
            },
            "viewport" : {
               "northeast" : {
                  "lat" : 51.21085132989273,
                  "lng" : 6.764428879892722
               },
               "southwest" : {
                  "lat" : 51.20815167010728,
                  "lng" : 6.761729220107278
               }
            }
         },
         "icon" : "https://maps.gstatic.com/mapfiles/place_api/icons/generic_business-71.png",
         "id" : "912a8651be213783bb32d55da9558fdd12482212",
         "name" : "Kraft Pictures Filmproduktion",
         "opening_hours" : {
            "open_now" : false
         },
         "photos" : [
            {
               "height" : 3024,
               "html_attributions" : [
                  "\u003ca href=\"https://maps.google.com/maps/contrib/115450136797571162875\"\u003eA Google User\u003c/a\u003e"
               ],
               "photo_reference" : "CmRaAAAACv4sdo0GjMYJLYaaxz9N0zPOrXXZsNcHqOkBWdwlESYP8AvZ6ez2K7mMlUeywQXu0mKQLwT5TElFXAUYKkIBtWeahrwRC5nK8DYqMktOiK3n39T4YlrwfIvTrmYokDdJEhBKp2vZ_CafjhbAP5hIxt3eGhR8a29yLUrhaf0DSqY2laQhZGoecA",
               "width" : 4032
            }
         ],
         "place_id" : "ChIJ___v7c7LuEcRRJfHBh5lzFU",
         "plus_code" : {
            "compound_code" : "6Q57+Q5 Düsseldorf",
            "global_code" : "9F386Q57+Q5"
         },
         "rating" : 5,
         "reference" : "ChIJ___v7c7LuEcRRJfHBh5lzFU",
         "scope" : "GOOGLE",
         "types" : [ "point_of_interest", "establishment" ],
         "user_ratings_total" : 4,
         "vicinity" : "Martinstraße 37, Düsseldorf"
      },
      {
         "business_status" : "OPERATIONAL",
         "geometry" : {
            "location" : {
               "lat" : 51.225497,
               "lng" : 6.7979962
            },
            "viewport" : {
               "northeast" : {
                  "lat" : 51.22687732989272,
                  "lng" : 6.799301629892721
               },
               "southwest" : {
                  "lat" : 51.22417767010728,
                  "lng" : 6.796601970107277
               }
            }
         },
         "icon" : "https://maps.gstatic.com/mapfiles/place_api/icons/generic_business-71.png",
         "id" : "e3db1d9ba60e86ff8c1867378b5223b4c81118e5",
         "name" : "ipps film+tv peer schöndorf filmproduktion",
         "place_id" : "ChIJuxa-tZehukcROX0BrufXRLQ",
         "plus_code" : {
            "compound_code" : "6QGX+55 Düsseldorf",
            "global_code" : "9F386QGX+55"
         },
         "rating" : 0,
         "reference" : "ChIJuxa-tZehukcROX0BrufXRLQ",
         "scope" : "GOOGLE",
         "types" : [ "point_of_interest", "establishment" ],
         "user_ratings_total" : 0,
         "vicinity" : "Ackerstraße 29A, Düsseldorf"
      },
      {
         "business_status" : "OPERATIONAL",
         "geometry" : {
            "location" : {
               "lat" : 51.20983,
               "lng" : 6.82769
            },
            "viewport" : {
               "northeast" : {
                  "lat" : 51.21127217989272,
                  "lng" : 6.829218029892721
               },
               "southwest" : {
                  "lat" : 51.20857252010727,
                  "lng" : 6.826518370107277
               }
            }
         },
         "icon" : "https://maps.gstatic.com/mapfiles/place_api/icons/generic_business-71.png",
         "id" : "9a4f589a4b56cb9fb2d0574f5010fc7e97f1d63a",
         "name" : "SKYLIKE Filmproduktion",
         "opening_hours" : {
            "open_now" : false
         },
         "place_id" : "ChIJv4JCcfXKuEcRzznftTC9VpE",
         "plus_code" : {
            "compound_code" : "6R5H+W3 Düsseldorf",
            "global_code" : "9F386R5H+W3"
         },
         "rating" : 0,
         "reference" : "ChIJv4JCcfXKuEcRzznftTC9VpE",
         "scope" : "GOOGLE",
         "types" : [ "point_of_interest", "establishment" ],
         "user_ratings_total" : 0,
         "vicinity" : "Erkrather Str. 401, Düsseldorf"
      },
      {
         "business_status" : "OPERATIONAL",
         "geometry" : {
            "location" : {
               "lat" : 51.24271390000001,
               "lng" : 6.783784100000001
            },
            "viewport" : {
               "northeast" : {
                  "lat" : 51.24400012989273,
                  "lng" : 6.785136529892721
               },
               "southwest" : {
                  "lat" : 51.24130047010728,
                  "lng" : 6.782436870107277
               }
            }
         },
         "icon" : "https://maps.gstatic.com/mapfiles/place_api/icons/generic_business-71.png",
         "id" : "85f66fa2032c42adae1d2dfa3a7a89c10b2e194f",
         "name" : "New ID Filmproduktion GmbH",
         "place_id" : "ChIJOVZIbI_JuEcR5AEFTAE27aI",
         "plus_code" : {
            "compound_code" : "6QVM+3G Düsseldorf",
            "global_code" : "9F386QVM+3G"
         },
         "rating" : 5,
         "reference" : "ChIJOVZIbI_JuEcR5AEFTAE27aI",
         "scope" : "GOOGLE",
         "types" : [ "point_of_interest", "establishment" ],
         "user_ratings_total" : 1,
         "vicinity" : "Jülicher Str. 14, Düsseldorf"
      },
      {
         "business_status" : "OPERATIONAL",
         "geometry" : {
            "location" : {
               "lat" : 51.23375,
               "lng" : 6.751600199999999
            },
            "viewport" : {
               "northeast" : {
                  "lat" : 51.23512132989273,
                  "lng" : 6.753084279892722
               },
               "southwest" : {
                  "lat" : 51.23242167010728,
                  "lng" : 6.750384620107278
               }
            }
         },
         "icon" : "https://maps.gstatic.com/mapfiles/place_api/icons/generic_business-71.png",
         "id" : "a8f9491b653ceffef3ab1636fc4689c2592ab4a9",
         "name" : "Polyphem Filmproduktion GbR",
         "place_id" : "ChIJu1gWeP-1uEcRWg06ae8CKKM",
         "plus_code" : {
            "compound_code" : "6QM2+FJ Düsseldorf",
            "global_code" : "9F386QM2+FJ"
         },
         "rating" : 5,
         "reference" : "ChIJu1gWeP-1uEcRWg06ae8CKKM",
         "scope" : "GOOGLE",
         "types" : [ "point_of_interest", "establishment" ],
         "user_ratings_total" : 1,
         "vicinity" : "Schorlemerstraße 30, Düsseldorf"
      },
      {
         "business_status" : "OPERATIONAL",
         "geometry" : {
            "location" : {
               "lat" : 51.2114164,
               "lng" : 6.7700349
            },
            "viewport" : {
               "northeast" : {
                  "lat" : 51.21277442989272,
                  "lng" : 6.771296029892722
               },
               "southwest" : {
                  "lat" : 51.21007477010728,
                  "lng" : 6.768596370107278
               }
            }
         },
         "icon" : "https://maps.gstatic.com/mapfiles/place_api/icons/generic_business-71.png",
         "id" : "ef6b9862b5233343555c5bf28f4f2adb0729dd31",
         "name" : "KOHLMANN MEDIA Filmproduktion",
         "opening_hours" : {
            "open_now" : false
         },
         "place_id" : "ChIJidV6cdPLuEcRhnu0LpItp4E",
         "plus_code" : {
            "compound_code" : "6Q6C+H2 Düsseldorf",
            "global_code" : "9F386Q6C+H2"
         },
         "rating" : 0,
         "reference" : "ChIJidV6cdPLuEcRhnu0LpItp4E",
         "scope" : "GOOGLE",
         "types" : [ "point_of_interest", "establishment" ],
         "user_ratings_total" : 0,
         "vicinity" : "Kronprinzenstraße 94, Düsseldorf"
      },
      {
         "business_status" : "OPERATIONAL",
         "geometry" : {
            "location" : {
               "lat" : 51.22036079999999,
               "lng" : 6.773977599999999
            },
            "viewport" : {
               "northeast" : {
                  "lat" : 51.22170992989272,
                  "lng" : 6.775405379892721
               },
               "southwest" : {
                  "lat" : 51.21901027010728,
                  "lng" : 6.772705720107277
               }
            }
         },
         "icon" : "https://maps.gstatic.com/mapfiles/place_api/icons/generic_business-71.png",
         "id" : "c3245f6ea01812f2f2a16fb9d0bd6f1353150aec",
         "name" : "Laterna Magica Filmproduktion GmbH",
         "opening_hours" : {
            "open_now" : true
         },
         "place_id" : "ChIJqUrE1WvKuEcRRolGPVUagTg",
         "plus_code" : {
            "compound_code" : "6QCF+4H Düsseldorf",
            "global_code" : "9F386QCF+4H"
         },
         "rating" : 5,
         "reference" : "ChIJqUrE1WvKuEcRRolGPVUagTg",
         "scope" : "GOOGLE",
         "types" : [ "point_of_interest", "establishment" ],
         "user_ratings_total" : 1,
         "vicinity" : "Hohe Str. 49, Düsseldorf"
      },
      {
         "business_status" : "OPERATIONAL",
         "geometry" : {
            "location" : {
               "lat" : 51.21479,
               "lng" : 6.75449
            },
            "viewport" : {
               "northeast" : {
                  "lat" : 51.21604757989272,
                  "lng" : 6.755923029892722
               },
               "southwest" : {
                  "lat" : 51.21334792010727,
                  "lng" : 6.753223370107278
               }
            }
         },
         "icon" : "https://maps.gstatic.com/mapfiles/place_api/icons/generic_business-71.png",
         "id" : "12d1aefbc81bdbf604265adb24ac309e97af11cb",
         "name" : "Filmproduktion Celebrity Service Atemlos GmbH",
         "place_id" : "ChIJ38NJVnPKuEcRzgrgFgxGLL4",
         "plus_code" : {
            "compound_code" : "6Q73+WQ Düsseldorf",
            "global_code" : "9F386Q73+WQ"
         },
         "rating" : 0,
         "reference" : "ChIJ38NJVnPKuEcRzgrgFgxGLL4",
         "scope" : "GOOGLE",
         "types" : [ "point_of_interest", "establishment" ],
         "user_ratings_total" : 0,
         "vicinity" : "Zollhof 11, Düsseldorf"
      },
      {
         "business_status" : "OPERATIONAL",
         "geometry" : {
            "location" : {
               "lat" : 51.218374,
               "lng" : 6.7892025
            },
            "viewport" : {
               "northeast" : {
                  "lat" : 51.21968112989272,
                  "lng" : 6.790452729892722
               },
               "southwest" : {
                  "lat" : 51.21698147010728,
                  "lng" : 6.787753070107278
               }
            }
         },
         "icon" : "https://maps.gstatic.com/mapfiles/place_api/icons/generic_business-71.png",
         "id" : "7c315a92a54526132d4c5bd7e83cd5d8c0701ed6",
         "name" : "Neuland GmbH - Filmproduktion",
         "opening_hours" : {
            "open_now" : false
         },
         "photos" : [
            {
               "height" : 1360,
               "html_attributions" : [
                  "\u003ca href=\"https://maps.google.com/maps/contrib/118065690302841143724\"\u003eA Google User\u003c/a\u003e"
               ],
               "photo_reference" : "CmRaAAAADKIH1rzF28uySarLFn0_ZB772pT-f-NM-thD1e3AyUWBWn9Lt4zQlercaK5mnMk-LfMTCUmbG0KHRuH4yulV2qFotEu8ZIYckIhWpt6zgZB3QYvbIopVQ2fpcbKaSaSqEhBRYU3WBcy5lZaxNS0RK_FrGhT6P2A0Z3jWKPGASN-Mfbw4kMtR_A",
               "width" : 3840
            }
         ],
         "place_id" : "ChIJjyV9TTfKuEcRwRE8ea752aE",
         "plus_code" : {
            "compound_code" : "6Q9Q+8M Düsseldorf",
            "global_code" : "9F386Q9Q+8M"
         },
         "rating" : 5,
         "reference" : "ChIJjyV9TTfKuEcRwRE8ea752aE",
         "scope" : "GOOGLE",
         "types" : [ "school", "point_of_interest", "establishment" ],
         "user_ratings_total" : 11,
         "vicinity" : "Mintropstraße 14-16, Düsseldorf"
      }
   ],
   "status" : "OK"
}
